[
  {
    "id": 1,
    "date": "2025-12-13",
    "day": "ç¬¬ä¸€å¤©",
    "weekday": "æ˜ŸæœŸå…­",
    "title": "æŠµé”ç¦å²¡",
    "items": [
      { "time": "17:05", "activity": "æŠµé”ç¦å²¡æ©Ÿå ´", "details": "èˆªç­ UO638" },
      { "time": "18:00", "activity": "å‰å¾€é…’åº—", "details": "çš„å£«ç´„ 20 åˆ†é˜ æˆ– åœ°éµè‡³ä¸­æ´²å·ç«¯ç«™" },
      { "time": "19:00", "activity": "è¾¦ç†å…¥ä½", "details": "ä¸‰äº•èŠ±åœ’é…’åº—ç¦å²¡ä¸­æ´²" },
      { "time": "æ™šé¤", "activity": "æ‹‰éºµæµ·é³´ (Ramen Unari)", "details": "ä¸­æ´²åº— - è‘—åçš„é’é†¬æ‹‰éºµï¼Œå°±åœ¨é…’åº—é™„è¿‘ã€‚ç‡Ÿæ¥­è‡³æ·±å¤œã€‚", "address": "æ—¥æœ¬ã€’810-0801 Fukuoka, Hakata Ward, Nakasu, 3 Chomeâˆ’6âˆ’23 å’Œç”°ãƒ“ãƒ«", "icon": "ğŸœ", "hours": "18:00-06:00" },
      { "time": "æ™šä¸Š", "activity": "æ¼«æ­¥ä¸­æ´²æ²³ç•”", "details": "é«”é©—ç¦å²¡è‘—åçš„å±‹å° (Yatai) æ–‡åŒ–", "icon": "ğŸ®" }
    ]
  },
  {
    "id": 2,
    "date": "2025-12-14",
    "day": "ç¬¬äºŒå¤©",
    "weekday": "æ˜ŸæœŸæ—¥",
    "title": "åšå¤šç²¾é¸ï¼ˆæ’éšŠæŒ‘æˆ°æ—¥ï¼‰",
    "items": [
      { "time": "æ—©ä¸Š", "activity": "Dacomecca éºµåŒ…åº—", "details": "ç¶²ç´…éºµåŒ…åº—ï¼Œæ’éšŠäººé¾é•·ã€‚å»ºè­° 8:00 å‰æŠµé”ã€‚", "address": "4-14 Hakataekimae, Hakata Ward, Fukuoka", "icon": "ğŸ¥", "hours": "08:00-20:00", "warning": "æ’éšŠç´„ 1-2 å°æ™‚", "backup": "Mutsukado (ã‚€ã¤ã‹å ‚) AMU Plaza 5F" },
      { "time": "æ´»å‹•", "activity": "æ¢ç´¢åšå¤šè»Šç«™åŸ & åšå¤šé‹æ²³åŸ", "address": "1-1 Hakataekichuogai, Hakata Ward, Fukuoka", "icon": "ğŸª" },
      { "time": "åˆé¤", "activity": "Ikura Hakata", "details": "è¶…äººæ°£æ¼¢å ¡æ’èˆ‡è›‹åŒ…é£¯ï¼Œç„¡æ³•é ç´„ã€‚", "address": "2-1 Hakataekichuogai, Hakata Ward, Fukuoka", "icon": "ğŸ”", "hours": "11:30-15:00 (è³£å®Œå³æ­¢)", "warning": "ç„¡æ³•é ç´„ï¼Œéœ€æ’éšŠ", "backup": "Hakata City 9F/10F (Kooten) é¤å»³è¡—" },
      { "time": "ä¸‹åˆ", "activity": "FUK COFFEE", "details": "åšå¤šç¥‡åœ’åº—", "address": "6-22 Gionmachi, Hakata Ward, Fukuoka", "icon": "â˜•", "hours": "08:00-20:00" },
      { "time": "æ™šé¤", "activity": "åšå¤šã‚‚ã¤å°† æˆ– ã‚‚ã¤æ–™ç† å¹¸", "details": "ç‰›è…¸é‹ (Motsunabe)", "address": "3-26 Tsunabamachi, Hakata Ward, Fukuoka", "icon": "ğŸ²", "hours": "17:00-23:00", "warning": "å»ºè­°é ç´„" },
      { "time": "æ™šä¸Š", "activity": "Kawaya Gion (çš®ç„¼)", "details": "åç‰©é›çš®ä¸²ç‡’ - å¿…é ˆé ç´„ã€‚", "address": "3-6 Gionmachi, Hakata Ward, Fukuoka", "icon": "ğŸ¢", "needsReservation": true, "hours": "17:00-23:00" }
    ]
  },
  {
    "id": 3,
    "date": "2025-12-15",
    "day": "ç¬¬ä¸‰å¤©",
    "weekday": "æ˜ŸæœŸä¸€",
    "title": "ç³¸å³¶ä¸€æ—¥éŠï¼ˆæµ·å²¸é¢¨æƒ…ï¼‰",
    "items": [
      { "time": "äº¤é€š", "activity": "ç§Ÿè»Šè‡ªé§• æˆ– æ­ä¹˜é›»è»Š+å·´å£«", "details": "å‰å¾€ç³¸å³¶åŠå³¶", "icon": "ğŸš—" },
      { "time": "åˆé¤", "activity": "ç³¸å³¶é£Ÿå ‚ (Itoshima Shokudo)", "details": "è‘—åçš„æµ·é®®ä¸¼ï¼Œæµ·æ™¯é¤å»³ã€‚å»ºè­° 11:00 å‰æŠµé”æ’éšŠã€‚", "address": "4787-7 Kota, Nishi Ward, Fukuoka 819-0203", "icon": "ğŸŸ", "warning": "æ’éšŠååº—", "hours": "11:00-16:00" },
      { "time": "ä¸‹åˆ", "activity": "æ«»äº•äºŒè¦‹æµ¦å¤«å©¦å²©", "details": "æµ·é‚Šå’–å•¡å»³ (Palm Beach)ã€æ¤°å­æ¨¹é¦éŸ†", "address": "Shimasakurai, Itoshima, Fukuoka 819-1304", "icon": "ğŸŒŠ" },
      { "time": "æ™šé¤", "activity": "ç‡’è‚‰å¤§å–œ (Yakiniku Taiki)", "details": "å”äººç”º - æ¨è–¦åšåˆ‡ç‰›èˆŒã€æ©«éš”è†œã€‚CPå€¼é«˜ã€‚", "address": "2 Chome-4-7 Tojinmachi, Chuo Ward, Fukuoka", "icon": "ğŸ¥©", "needsReservation": true, "hours": "17:00-23:00" }
    ]
  },
  {
    "id": 4,
    "date": "2025-12-16",
    "day": "ç¬¬å››å¤©",
    "weekday": "æ˜ŸæœŸäºŒ",
    "title": "èƒ½å¤å³¶ & ç¾ä»£ç¦å²¡ï¼ˆæµ·æ™¯æ—¥ï¼‰",
    "items": [
      { "time": "09:30", "activity": "èƒ½å¤å³¶æµ·å³¶å…¬åœ’", "details": "å¾å§ªæ¿±æ¸¡è¼ªç«™æ­èˆ¹ (10åˆ†é˜)ã€‚å†¬å­£å¯è³æ°´ä»™ã€å±±èŒ¶èŠ±ã€‚åˆé¤å¯åœ¨å³¶ä¸Šè§£æ±º (èƒ½å¤æ¼¢å ¡)ã€‚", "address": "Nokonoshima, Nishi Ward, Fukuoka", "icon": "ğŸï¸", "hours": "09:00-17:30" },
      { "time": "ä¸‹åˆ", "activity": "ç¦å²¡å¡” & ç™¾é“æµ·æ¿±å…¬åœ’", "details": "è¿”å›å¸‚å€å¾Œå‰å¾€ã€‚æ¬£è³ç¦å²¡å¤©éš›ç·šèˆ‡å¤•é™½ã€‚Marinoa City å·²é–‰é¤¨ï¼Œæ•…æ”¹æ­¤è¡Œç¨‹ã€‚", "address": "2-3-26 Momochihama, Sawara Ward, Fukuoka", "icon": "ğŸ—¼", "hours": "09:30-22:00" },
      { "time": "å‚™æ¡ˆ", "activity": "BOSS E-ZO FUKUOKA", "details": "TeamLab Forest / æ£’çƒå ´æ—å¨›æ¨‚è¨­æ–½ (å¦‚ä¸‹é›¨å¯å»)", "address": "2-2-6 Jigyohama, Chuo Ward, Fukuoka", "icon": "ğŸ®", "hours": "11:00-20:00" },
      { "time": "æ™šé¤", "activity": "ä¸€å¹¸èˆç¸½æœ¬åº—", "details": "åšå¤šæ³¡ç³»è±šéª¨æ‹‰éºµå…ƒç¥–", "address": "3-23-12 Hakataekimae, Hakata Ward, Fukuoka", "icon": "ğŸœ", "hours": "11:00-21:00" }
    ]
  },
  {
    "id": 5,
    "date": "2025-12-17",
    "day": "ç¬¬äº”å¤©",
    "weekday": "æ˜ŸæœŸä¸‰",
    "title": "å¤©ç¥ & èµ¤å‚ï¼ˆåŸå¸‚æ°›åœï¼‰",
    "items": [
      { "time": "åˆé¤", "activity": "è‘«è˜†å£½å¸ (Hyotan Sushi)", "details": "å¤©ç¥æ’éšŠå£½å¸è€åº—ã€‚", "address": "æ—¥æœ¬ã€’810-0001 Fukuoka, Chuo Ward, Tenjin, 2 Chomeâˆ’10âˆ’20 æ–°å¤©é–£ãƒ“ãƒ« 2F", "icon": "ğŸ£", "warning": "é–‹åº—å‰æ’éšŠ", "hours": "11:30-14:30, 17:00-21:00" },
      { "time": "è³¼ç‰©", "activity": "å¤©ç¥åœ°ä¸‹è¡—ã€å¤§åå€åŸŸ", "details": "æ½®æµåº—é‹ªã€å¤è‘—åº—", "address": "2 Chome Tenjin, Chuo Ward, Fukuoka", "icon": "ğŸ›ï¸", "hours": "10:00-20:00" },
      { "time": "å°åƒ", "activity": "full full", "details": "å¤©ç¥ - è‘—åçš„æ˜å¤ªå­æ³•æ£éºµåŒ…", "address": "1-9-3 Tenjin, Chuo Ward, Fukuoka", "icon": "ğŸ¥–", "hours": "10:00-18:00" },
      { "time": "æ™šé¤", "activity": "Nico Appartement", "details": "èµ¤å‚ - æ³•å¼å°é…’é¤¨é¢¨æ ¼", "address": "2-1-50 Daimyo, Chuo Ward, Fukuoka", "icon": "ğŸ·", "needsReservation": true, "hours": "18:00-00:00" },
      { "time": "æ™šä¸Š", "activity": "èµ¤å‚å€åŸŸçš„å°é…’é¤¨", "details": "å°é…Œ", "address": "Akasaka, Chuo Ward, Fukuoka", "icon": "ğŸ»" }
    ]
  },
  {
    "id": 6,
    "date": "2025-12-18",
    "day": "ç¬¬å…­å¤©",
    "weekday": "æ˜ŸæœŸå››",
    "title": "æ”¾é¬† & åœ¨åœ°ç¾é£Ÿ",
    "items": [
      { "time": "æ—©åˆé¤", "activity": "é£Ÿå ‚ å…‰ (Shokudo Hikari)", "details": "æŸ³æ©‹é€£åˆå¸‚å ´å…§å‚³å¥‡æµ·é®®ä¸¼ã€‚å‹™å¿… 10:00 å‰æ’éšŠï¼Œå”®å®Œå³æ­¢", "address": "1-6-1 Haruyoshi, Chuo Ward, Fukuoka 810-0003", "icon": "ğŸŸ", "warning": "éœ€ææ—©æ’éšŠ", "hours": "10:00-14:00" },
      { "time": "æ´»å‹•", "activity": "KARADA FACTORY", "details": "èº«é«”ä¿é¤Š/æŒ‰æ‘©", "address": "9-1 Hakataekichuogai, Hakata Ward, Fukuoka (KITTE Hakata)", "icon": "ğŸ’†", "hours": "10:00-21:00" },
      { "time": "è³¼ç‰©", "activity": "LOPIA åšå¤šåº—", "details": "Yodobashi Camera 4F - è³¼è²·é›¶é£Ÿã€ä¼´æ‰‹ç¦®", "address": "6-12 Hakataekichuogai, Hakata Ward, Fukuoka", "icon": "ğŸ›’", "hours": "10:00-20:00" },
      { "time": "æ™šé¤", "activity": "é®¨ å“å· (Sushi Shinagawa)", "details": "å„ªè³ª Omakase - å¿…é ˆé ç´„", "address": "2-8-28 Maizuru, Chuo Ward, Fukuoka", "icon": "ğŸ£", "needsReservation": true, "hours": "18:00-23:00" }
    ]
  },
  {
    "id": 7,
    "date": "2025-12-19",
    "day": "ç¬¬ä¸ƒå¤©",
    "weekday": "æ˜ŸæœŸäº”",
    "title": "æœ€å¾Œè¡åˆº & ç¶“å…¸å›å‘³",
    "items": [
      { "time": "åˆé¤", "activity": "ä¸€è˜­æ‹‰éºµ ç¸½æœ¬åº—", "details": "ä¸­æ´² - æ•´æ£Ÿæ›ç‡ˆç± çš„å¤§æ¨“", "address": "5-3-2 Nakasu, Hakata Ward, Fukuoka", "icon": "ğŸœ", "hours": "24 å°æ™‚ç‡Ÿæ¥­" },
      { "time": "ä¸‹åˆ", "activity": "æœ€å¾Œè£œè²¨", "details": "é©šå®‰ä¹‹æ®¿å ‚ Don Quijote ä¸­æ´²åº—", "address": "3-7-24 Nakasu, Hakata Ward, Fukuoka", "icon": "ğŸ", "hours": "24 å°æ™‚ç‡Ÿæ¥­" },
      { "time": "æ™šé¤", "activity": "å…ƒç¥–åšå¤šéºµé€šåœ˜ æˆ– å›è¨ªå–œæ­¡çš„åº—å®¶", "details": "çƒé¾éºµã€‚æˆ– Nikuichi (è‚‰ã„ã¡)", "address": "1-2-18 Hakataekiminami, Hakata Ward, Fukuoka", "icon": "ğŸœ", "hours": "11:00-23:00" }
    ]
  },
  {
    "id": 8,
    "date": "2025-12-20",
    "day": "ç¬¬å…«å¤©",
    "weekday": "æ˜ŸæœŸå…­",
    "title": "å›ç¨‹",
    "items": [
      { "time": "æ—©ä¸Š", "activity": "å–æ¯å’–å•¡ & æ‰“åŒ…è¡Œæ", "icon": "â˜•" },
      { "time": "11:30", "activity": "é€€æˆ¿ & å‰å¾€æ©Ÿå ´", "details": "åœ°éµ/çš„å£«å¾ˆå¿«", "icon": "ğŸš•" },
      { "time": "14:00", "activity": "æ­ä¹˜èˆªç­ HB3369", "details": "è¿”å›é¦™æ¸¯", "icon": "âœˆï¸" }
    ]
  }
]
